- name: Home
  latitude: 32.252417
  longitude: 34.920265
  radius: 100
  icon: mdi:mailbox

- name: Errands
  latitude: 32.276199031143
  longitude: 34.919878124576
  radius: 300
  icon: mdi:cart

- name: Work
  latitude: 32.281778
  longitude: 34.863036
  radius: 300
  icon: mdi:face

- name: Arad
  latitude: 31.259639
  longitude: 35.216699
  radius: 2000
  icon: mdi:beach

- name: Hila and Guy
  latitude: 32.430127597375
  longitude: 34.94698692589
  radius: 300
  icon: mdi:pig